[
  {
    "macro": "I - Metropolitana",
    "geres": "I - Recife",
    "rd": "Metropolitana",
    "municipio": "Abreu e Lima",
    "unidade": "UPAE Grande Recife",
    "endereco": "Rod. Gov. Mário Covas, 64 - Timbó, Abreu e Lima - PE, 53520-015",
    "latitude": "-7.8868778",
    "longitude": "-34.9064688",
    "tipoUnidade": "UPAE",
    "tipoGestao": "Gestão por OSS",
    "detalhamentoGestao": "OSS - IBDAH"
  },
  {
    "macro": "II - Agreste",
    "geres": "IV - Caruaru",
    "rd": "Agreste Central",
    "municipio": "Belo Jardim",
    "unidade": "UPAE Belo Jardim",
    "endereco": "BR-232, 785 - São Pedro, Belo Jardim - PE, 55158-810",
    "latitude": "-8.3436282",
    "longitude": "-36.4236674",
    "tipoUnidade": "UPAE",
    "tipoGestao": "Gestão por OSS",
    "detalhamentoGestao": "OSS - HCP Gestão"
  },
  {
    "macro": "IV - Vale do São Francisco e Araripe",
    "geres": "VII - Salgueiro",
    "rd": "Sertão Central",
    "municipio": "Salgueiro",
    "unidade": "Hospital Regional Inácio de Sá",
    "endereco": "R. Antônio Alençar Sampaio, 346 - Planalto, Salgueiro - PE, 56000-000",
    "latitude": "-8.0586404",
    "longitude": "-39.1157599",
    "tipoUnidade": "Regional",
    "tipoGestao": "Gestão Direta"
  },
  {
    "macro": "III - Sertão",
    "geres": "X - Afogados da Ingazeira",
    "rd": "Sertão do Pajeú",
    "municipio": "Afogados da Ingazeira",
    "unidade": "Hospital Regional Emília Câmara",
    "endereco": "R. Manoel Virgínio Sobrinho, 156-238, Afogados da Ingazeira - PE, 56800-000",
    "latitude": "-7.7374671",
    "longitude": "-37.6532626",
    "tipoUnidade": "Regional",
    "tipoGestao": "Gestão por OSS",
    "detalhamentoGestao": "OSS - Tricentenário"
  },
  {
    "macro": "III - Sertão",
    "geres": "X - Afogados da Ingazeira",
    "rd": "Sertão do Pajeú",
    "municipio": "Afogados da Ingazeira",
    "unidade": "UPAE Afogados da Ingazeira",
    "endereco": "R. Antônio Alves dos Santos, s/n - Centro, Afogados da Ingazeira - PE, 56800-970",
    "latitude": "-7.754474",
    "longitude": "-37.6390148",
    "tipoUnidade": "UPAE",
    "tipoGestao": "Gestão por OSS",
    "detalhamentoGestao": "OSS - Tricentenário"
  },
  {
    "macro": "III - Sertão",
    "geres": "VI - Arcoverde",
    "rd": "Sertão do Moxotó",
    "municipio": "Arcoverde",
    "unidade": "Hospital Regional Ruy de Barros Correia",
    "endereco": "Av. Dr. Agamenon Magalhães, s/n - Centro, Arcoverde - PE, 56510-010",
    "latitude": "-8.4222755",
    "longitude": "-37.0575019",
    "tipoUnidade": "Regional",
    "tipoGestao": "Gestão por OSS",
    "detalhamentoGestao": "OSS - Tricentenário"
  },
  {
    "macro": "III - Sertão",
    "geres": "VI - Arcoverde",
    "rd": "Sertão do Moxotó",
    "municipio": "Arcoverde",
    "unidade": "UPAE Arcoverde",
    "endereco": "Av. Conselheiro João Alfredo, 491 - Santa Luzia, Arcoverde - PE, 56517-100",
    "latitude": "-8.4186971",
    "longitude": "-37.0433259",
    "tipoUnidade": "UPAE",
    "tipoGestao": "Gestão por OSS",
    "detalhamentoGestao": "OSS - HCP Gestão"
  },
  {
    "macro": "I - Metropolitana",
    "geres": "I - Recife",
    "rd": "Metropolitana",
    "municipio": "Cabo de Santo Agostinho",
    "unidade": "Hospital Metropolitano Dom Hélder Câmara",
    "endereco": "Estr. Usina Bom Jesus, km 28 - Pte. dos Carvalhos, Cabo de Santo Agostinho - PE, 54580-812",
    "latitude": "-8.2508654",
    "longitude": "-35.0102006",
    "tipoUnidade": "Metropolitano",
    "tipoGestao": "Gestão por OSS",
    "detalhamentoGestao": "OSS - FGH"
  },
  {
    "macro": "I - Metropolitana",
    "geres": "I - Recife",
    "rd": "Metropolitana",
    "municipio": "Cabo de Santo Agostinho",
    "unidade": "UPA Cabo de Santo Agostinho",
    "endereco": "Rua Paulo Manoel da Cunha 830 Núcleo Residencial Ministro Marcos Freire, Cabo de Santo Agostinho - PE, 54520-535",
    "latitude": "-8.2966344",
    "longitude": "-35.0300209",
    "tipoUnidade": "UPA",
    "tipoGestao": "Gestão por OSS",
    "detalhamentoGestao": "OSS - FMSA"
  },
  {
    "macro": "I - Metropolitana",
    "geres": "II - Limoeiro",
    "rd": "Mata Norte",
    "municipio": "Carpina",
    "unidade": "UPAE Carpina",
    "endereco": "R. Luís Gonzaga Amorim Ribeiro, 50 - Santa Cruz, Carpina - PE, 55811-100",
    "latitude": "-7.8417707",
    "longitude": "-35.2435481",
    "tipoUnidade": "UPAE",
    "tipoGestao": "Gestão por OSS",
    "detalhamentoGestao": "OSS - FGH"
  },
  {
    "macro": "II - Agreste",
    "geres": "IV - Caruaru",
    "rd": "Agreste Central",
    "municipio": "Caruaru",
    "unidade": "Hospital Jesus Nazareno",
    "endereco": "Rua Ana Maria da Silva Brasileirinho, s/n - Maurício de Nassau, Caruaru - PE, 55014-325",
    "latitude": "-8.2701571",
    "longitude": "-35.9767374",
    "tipoUnidade": "Regional",
    "tipoGestao": "Gestão Direta"
  },
  {
    "macro": "II - Agreste",
    "geres": "IV - Caruaru",
    "rd": "Agreste Central",
    "municipio": "Caruaru",
    "unidade": "Hospital Mestre Vitalino",
    "endereco": "BR-104, 756 - Luiz Gonzaga, Caruaru - PE, 55015-901",
    "latitude": "-8.2453361",
    "longitude": "-35.9790949",
    "tipoUnidade": "Metropolitano",
    "tipoGestao": "Gestão por OSS",
    "detalhamentoGestao": "OSS - Tricentenário"
  },
  {
    "macro": "II - Agreste",
    "geres": "IV - Caruaru",
    "rd": "Agreste Central",
    "municipio": "Caruaru",
    "unidade": "Hospital Regional do Agreste Dr. Waldemiro Ferreira",
    "endereco": "Rodovia BR-232, Km 130, s/n - Indianópolis - Caruaru - PE, 55002-970",
    "latitude": "-8.307579",
    "longitude": "-35.9707219",
    "tipoUnidade": "6 Grandes",
    "tipoGestao": "Gestão Direta"
  },
  {
    "macro": "II - Agreste",
    "geres": "IV - Caruaru",
    "rd": "Agreste Central",
    "municipio": "Caruaru",
    "unidade": "Hospital São Sebastião",
    "endereco": "Av. Agamenon Magalhães - Maurício de Nassau, Caruaru - PE, 55012-290",
    "latitude": "-8.2737177",
    "longitude": "-35.9768511",
    "tipoUnidade": "Hospital OSS",
    "tipoGestao": "Gestão por OSS",
    "detalhamentoGestao": "OSS - HCP Gestão"
  },
  {
    "macro": "II - Agreste",
    "geres": "IV - Caruaru",
    "rd": "Agreste Central",
    "municipio": "Caruaru",
    "unidade": "UPA Caruaru",
    "endereco": "R. Nazaré da Mata - Vassoural, Caruaru - PE, 55000-000",
    "latitude": "-8.3023895",
    "longitude": "-35.9704852",
    "tipoUnidade": "UPA",
    "tipoGestao": "Gestão por OSS",
    "detalhamentoGestao": "OSS - FMSA"
  },
  {
    "macro": "II - Agreste",
    "geres": "IV - Caruaru",
    "rd": "Agreste Central",
    "municipio": "Caruaru",
    "unidade": "UPAE Caruaru",
    "endereco": "Av. José Rodrigues de Jesus, 789-613 - Santa Rosa, Caruaru - PE",
    "latitude": "-8.303021",
    "longitude": "-35.965063",
    "tipoUnidade": "UPAE",
    "tipoGestao": "Gestão por OSS",
    "detalhamentoGestao": "OSS - HCP Gestão"
  },
  {
    "macro": "I - Metropolitana",
    "geres": "III - Palmares",
    "rd": "Mata Sul",
    "municipio": "Escada",
    "unidade": "UPAE Escada",
    "endereco": "R. Eng. Alves de Souza, 737 - Jaguaribe, Escada - PE, 55500-000",
    "latitude": "-8.3683737",
    "longitude": "-35.2402675",
    "tipoUnidade": "UPAE",
    "tipoGestao": "Gestão por OSS",
    "detalhamentoGestao": "OSS - FGH"
  },
  {
    "macro": "I - Metropolitana",
    "geres": "I - Recife",
    "rd": "Metropolitana",
    "municipio": "Fernando de Noronha",
    "unidade": "Hospital São Lucas",
    "endereco": "Bosque Flamboyant, BR-363, S/N, Floresta Nova - Fernando de Noronha - PE, 53990-000",
    "latitude": "-3.8457414",
    "longitude": "-32.4131766",
    "tipoUnidade": "Especializado",
    "tipoGestao": "Gestão Direta"
  },
  {
    "macro": "II - Agreste",
    "geres": "V - Garanhuns",
    "rd": "Agreste Meridional",
    "municipio": "Garanhuns",
    "unidade": "Hospital Regional Dom Moura",
    "endereco": "Av. Simoa Gomes, s/n - Heliópolis, Garanhuns - PE, 55290-000",
    "latitude": "-8.8824909",
    "longitude": "-36.4861541",
    "tipoUnidade": "Regional",
    "tipoGestao": "Gestão Direta"
  },
  {
    "macro": "II - Agreste",
    "geres": "V - Garanhuns",
    "rd": "Agreste Meridional",
    "municipio": "Garanhuns",
    "unidade": "UPAE Garanhuns",
    "endereco": "Rodovia BR 423 Km 96, 8 - Magano, Garanhuns - PE, 55295-135",
    "latitude": "-8.8786484",
    "longitude": "-36.5008531",
    "tipoUnidade": "UPAE",
    "tipoGestao": "Gestão por OSS",
    "detalhamentoGestao": "OSS - FGH"
  },
  {
    "macro": "I - Metropolitana",
    "geres": "XII - Goiana",
    "rd": "Metropolitana",
    "municipio": "Goiana",
    "unidade": "Hospital Belarmino Correia",
    "endereco": "Praça Correia Picanço, s/n - Centro, Goiana - PE, 55900-000",
    "latitude": "-7.5580231",
    "longitude": "-35.0052845",
    "tipoUnidade": "Regional",
    "tipoGestao": "Gestão Direta"
  },
  {
    "macro": "IV - Vale do São Francisco e Araripe",
    "geres": "VIII - Petrolina",
    "rd": "Sertão do São Francisco",
    "municipio": "Petrolina",
    "unidade": "UPAE Petrolina",
    "endereco": "Av. Cel. Antônio Hónorato Viana - Jardim Maravilha, Petrolina - PE, 56308-000",
    "latitude": "-9.3895523",
    "longitude": "-40.5218454",
    "tipoUnidade": "UPAE",
    "tipoGestao": "Gestão por OSS",
    "detalhamentoGestao": "OSS - IMIP"
  },
  {
    "macro": "I - Metropolitana",
    "geres": "I - Recife",
    "rd": "Metropolitana",
    "municipio": "Igarassu",
    "unidade": "UPA Igarassu",
    "endereco": "Rodovia Br-101 Norte, km 47 - Cruz de Rebouças, Igarassu - PE, 53600-000",
    "latitude": "-7.8793849",
    "longitude": "-34.909773",
    "tipoUnidade": "UPA",
    "tipoGestao": "Gestão por OSS",
    "detalhamentoGestao": "OSS - HCP Gestão"
  },
  {
    "macro": "I - Metropolitana",
    "geres": "I - Recife",
    "rd": "Metropolitana",
    "municipio": "Jaboatão dos Guararapes",
    "unidade": "Hospital Jaboatão Prazeres",
    "endereco": "Rua Recife, S/N, Cajueiro Seco - Jaboatão dos Guararapes - PE, 54330-250",
    "latitude": "-8.1660378",
    "longitude": "-34.9268587",
    "tipoUnidade": "Especializado",
    "tipoGestao": "Gestão Direta"
  },
  {
    "macro": "I - Metropolitana",
    "geres": "I - Recife",
    "rd": "Metropolitana",
    "municipio": "Jaboatão dos Guararapes",
    "unidade": "UPA Barra de Jangada",
    "endereco": "R. Cruz Alta, s/n - Barra de Jangada, Jaboatão dos Guararapes - PE, 54470-030",
    "latitude": "-8.2190431",
    "longitude": "-34.9386753",
    "tipoUnidade": "UPA",
    "tipoGestao": "Gestão por OSS",
    "detalhamentoGestao": "OSS - ISMEP"
  },
  {
    "macro": "I - Metropolitana",
    "geres": "I - Recife",
    "rd": "Metropolitana",
    "municipio": "Jaboatão dos Guararapes",
    "unidade": "UPA Curado",
    "endereco": "R. Leonardo da Vinci, 68 - Curado II, Jaboatão dos Guararapes - PE, 54220-000",
    "latitude": "-8.0808504",
    "longitude": "-34.997608",
    "tipoUnidade": "UPA",
    "tipoGestao": "Gestão por OSS",
    "detalhamentoGestao": "OSS - Tricentenário"
  },
  {
    "macro": "I - Metropolitana",
    "geres": "I - Recife",
    "rd": "Metropolitana",
    "municipio": "Jaboatão dos Guararapes",
    "unidade": "UPA Engenho Velho",
    "endereco": "Rua, Av. Gen. Manoel Rabelo, s/n - Engenho Velho, Jaboatão dos Guararapes - PE, 54160-000",
    "latitude": "-8.1095978",
    "longitude": "-35.006894",
    "tipoUnidade": "UPA",
    "tipoGestao": "Gestão por OSS",
    "detalhamentoGestao": "OSS - FMSA"
  },
  {
    "macro": "I - Metropolitana",
    "geres": "II - Limoeiro",
    "rd": "Agreste Setentrional",
    "municipio": "Limoeiro",
    "unidade": "Hospital Regional José Fernandes Salsa",
    "endereco": "Rua Padre Nicolau Pimentel, 224, Centro - Limoeiro - PE",
    "latitude": "-7.8814699",
    "longitude": "-35.4502462",
    "tipoUnidade": "Regional",
    "tipoGestao": "Gestão Direta"
  },
  {
    "macro": "I - Metropolitana",
    "geres": "II - Limoeiro",
    "rd": "Agreste Setentrional",
    "municipio": "Limoeiro",
    "unidade": "UPAE Limoeiro",
    "endereco": "Margem PE-90, S/N, Fazenda Livramento, Limoeiro - PE, 55700-000",
    "latitude": "-7.8634027",
    "longitude": "-35.4330136",
    "tipoUnidade": "UPAE",
    "tipoGestao": "Gestão por OSS",
    "detalhamentoGestao": "OSS - Apami-Surubim"
  },
  {
    "macro": "I - Metropolitana",
    "geres": "II - Limoeiro",
    "rd": "Mata Norte",
    "municipio": "Nazaré da Mata",
    "unidade": "Hospital Ermírio Coutinho",
    "endereco": "Travessa Bancário Leopoldino Vieira de Melo Filho, s/n Centro, Nazaré da Mata - PE, 55800-000",
    "latitude": "-7.7441304",
    "longitude": "-35.2313486",
    "tipoUnidade": "Hospital OSS",
    "tipoGestao": "Gestão por OSS",
    "detalhamentoGestao": "OSS - FMSA"
  },
  {
    "macro": "I - Metropolitana",
    "geres": "I - Recife",
    "rd": "Metropolitana",
    "municipio": "Olinda",
    "unidade": "Hospital Brites De Albuquerque",
    "endereco": "Av. Pan Nordestina, 4215 - Tabajara, Olinda - PE, 53350-015",
    "latitude": "-7.9804639",
    "longitude": "-34.8633123",
    "tipoUnidade": "Hospital OSS",
    "tipoGestao": "Gestão por OSS",
    "detalhamentoGestao": "OSS - Tricentenário"
  },
  {
    "macro": "I - Metropolitana",
    "geres": "I - Recife",
    "rd": "Metropolitana",
    "municipio": "Olinda",
    "unidade": "UPA Olinda",
    "endereco": "Av. Dr. Joaquim Nabuco, S/N - Tabajara, Olinda - PE, 53350-005",
    "latitude": "-7.9797454",
    "longitude": "-34.8623201",
    "tipoUnidade": "UPA",
    "tipoGestao": "Gestão por OSS",
    "detalhamentoGestao": "OSS - ISMEP"
  },
  {
    "macro": "IV - Vale do São Francisco e Araripe",
    "geres": "IX - Ouricuri",
    "rd": "Sertão do Araripe",
    "municipio": "Ouricuri",
    "unidade": "Hospital Regional Fernando Bezerra",
    "endereco": "R. Teobaldo Gomes Torres, 510 - Centro, Ouricuri - PE, 56200-000",
    "latitude": "-7.8830356",
    "longitude": "-40.0871086",
    "tipoUnidade": "Regional",
    "tipoGestao": "Gestão por OSS",
    "detalhamentoGestao": "OSS - ISMEP"
  },
  {
    "macro": "IV - Vale do São Francisco e Araripe",
    "geres": "IX - Ouricuri",
    "rd": "Sertão do Araripe",
    "municipio": "Ouricuri",
    "unidade": "UPAE Ouricuri",
    "endereco": "Av Manoel Irineu Araujo - Centro, Ouricuri - PE, 56200-000",
    "latitude": "-7.8809454",
    "longitude": "-40.0918497",
    "tipoUnidade": "UPAE",
    "tipoGestao": "Gestão por OSS",
    "detalhamentoGestao": "OSS - ISMEP"
  },
  {
    "macro": "I - Metropolitana",
    "geres": "III - Palmares",
    "rd": "Mata Sul",
    "municipio": "Palmares",
    "unidade": "Hospital Regional de Palmares Dr. Sílvio Magalhães",
    "endereco": "Br 101, Km 185, s/n Engenho Quilombo dos, Palmares - PE, 55540-000",
    "latitude": "-8.686213",
    "longitude": "-35.5780339",
    "tipoUnidade": "Regional",
    "tipoGestao": "Gestão por OSS",
    "detalhamentoGestao": "OSS - FMSA"
  },
  {
    "macro": "I - Metropolitana",
    "geres": "III - Palmares",
    "rd": "Mata Sul",
    "municipio": "Palmares",
    "unidade": "UPAE Palmares",
    "endereco": "BR 101, KM 185, Lot. Quilombo dos Palmares, Newton Carneiro - Palmares, PE, 55540-000",
    "latitude": "-8.6879839",
    "longitude": "-35.5780904",
    "tipoUnidade": "UPAE",
    "tipoGestao": "Gestão por OSS",
    "detalhamentoGestao": "OSS - HCP Gestão"
  },
  {
    "macro": "I - Metropolitana",
    "geres": "I - Recife",
    "rd": "Metropolitana",
    "municipio": "Paulista",
    "unidade": "Hospital Geral da Mirueira",
    "endereco": "Estr. da Santa Casa, s/n - Mirueira, Paulista - PE, 53405-200",
    "latitude": "-7.9684067",
    "longitude": "-34.8982567",
    "tipoUnidade": "Especializado",
    "tipoGestao": "Gestão Direta"
  },
  {
    "macro": "I - Metropolitana",
    "geres": "I - Recife",
    "rd": "Metropolitana",
    "municipio": "Paulista",
    "unidade": "Hospital Metropolitano Miguel Arraes",
    "endereco": "R. Fazendinha, s/n - Jaguaribe, Paulista - PE, 53413-000",
    "latitude": "-7.9202242",
    "longitude": "-34.8936111",
    "tipoUnidade": "Metropolitano",
    "tipoGestao": "Gestão por OSS",
    "detalhamentoGestao": "OSS - FGH"
  },
  {
    "macro": "I - Metropolitana",
    "geres": "I - Recife",
    "rd": "Metropolitana",
    "municipio": "Paulista",
    "unidade": "UPA Paulista",
    "endereco": "Estr. do Frio, 1000 - Jardim Paulista, Paulista - PE, 53401-030",
    "latitude": "-7.948209",
    "longitude": "-34.8928611",
    "tipoUnidade": "UPA",
    "tipoGestao": "Gestão por OSS",
    "detalhamentoGestao": "OSS - FMSA"
  },
  {
    "macro": "IV - Vale do São Francisco e Araripe",
    "geres": "VIII - Petrolina",
    "rd": "Sertão do São Francisco",
    "municipio": "Petrolina",
    "unidade": "Hospital Dom Malan",
    "endereco": "Avenida do Aeroporto s/n - Centro, Petrolina - PE, 56306-040",
    "latitude": "-9.3947248",
    "longitude": "-40.5021768",
    "tipoUnidade": "Hospital OSS",
    "tipoGestao": "Gestão por OSS",
    "detalhamentoGestao": "OSS - ISMEP"
  },
  {
    "macro": "IV - Vale do São Francisco e Araripe",
    "geres": "VIII - Petrolina",
    "rd": "Sertão do São Francisco",
    "municipio": "Petrolina",
    "unidade": "UPA Petrolina",
    "endereco": "Av. Cel. Antônio Hónorato Viana, s/n - Palhinhas, Petrolina - PE, 56308-000",
    "latitude": "-9.3897375",
    "longitude": "-40.5243131",
    "tipoUnidade": "UPA",
    "tipoGestao": "Gestão por OSS",
    "detalhamentoGestao": "OSS - FGH"
  },
  {
    "macro": "I - Metropolitana",
    "geres": "I - Recife",
    "rd": "Metropolitana",
    "municipio": "Recife",
    "unidade": "Hospital Agamenon Magalhães",
    "endereco": "Estr. do Arraial, 2723 - Casa Amarela, Recife - PE, 52051-380",
    "latitude": "-8.0302986",
    "longitude": "-34.9097041",
    "tipoUnidade": "6 Grandes",
    "tipoGestao": "Gestão Direta"
  },
  {
    "macro": "I - Metropolitana",
    "geres": "I - Recife",
    "rd": "Metropolitana",
    "municipio": "Recife",
    "unidade": "Hospital Barão de Lucena",
    "endereco": "Av. Caxangá, 3860 - Iputinga, Recife - PE, 50731-000",
    "latitude": "-8.0384768",
    "longitude": "-34.9415607",
    "tipoUnidade": "6 Grandes",
    "tipoGestao": "Gestão Direta"
  },
  {
    "macro": "I - Metropolitana",
    "geres": "I - Recife",
    "rd": "Metropolitana",
    "municipio": "Recife",
    "unidade": "Hospital Correia Picanço",
    "endereco": "R. Padre Roma, 149 - Tamarineira, Recife - PE, 52060-060",
    "latitude": "-8.0339289",
    "longitude": "-34.9073198",
    "tipoUnidade": "Especializado",
    "tipoGestao": "Gestão Direta"
  },
  {
    "macro": "I - Metropolitana",
    "geres": "I - Recife",
    "rd": "Metropolitana",
    "municipio": "Recife",
    "unidade": "Hospital da Restauração Governador Paulo Guerra",
    "endereco": "Av. Gov. Agamenon Magalhães, s/n - Derby, Recife - PE, 52171-011",
    "latitude": "-8.0534996",
    "longitude": "-34.9026103",
    "tipoUnidade": "6 Grandes",
    "tipoGestao": "Gestão Direta"
  },
  {
    "macro": "I - Metropolitana",
    "geres": "I - Recife",
    "rd": "Metropolitana",
    "municipio": "Recife",
    "unidade": "Hospital Geral de Areias",
    "endereco": "Av. Recife, 810 - Estância, Recife - PE, 50870-901",
    "latitude": "-8.1001389",
    "longitude": "-34.9289813",
    "tipoUnidade": "Especializado",
    "tipoGestao": "Gestão Direta"
  },
  {
    "macro": "I - Metropolitana",
    "geres": "I - Recife",
    "rd": "Metropolitana",
    "municipio": "Recife",
    "unidade": "Hospital Getúlio Vargas",
    "endereco": "Av. Gen. San Martin, s/n - Cordeiro, Recife - PE, 50630-060",
    "latitude": "-8.051256",
    "longitude": "-34.9248227",
    "tipoUnidade": "6 Grandes",
    "tipoGestao": "Gestão Direta"
  },
  {
    "macro": "I - Metropolitana",
    "geres": "I - Recife",
    "rd": "Metropolitana",
    "municipio": "Recife",
    "unidade": "Hospital Metropolitano Pelópidas Silveira",
    "endereco": "BR 232 km 6 - Curado, Recife - PE, 50790-640",
    "latitude": "-8.0726433",
    "longitude": "-34.9526842",
    "tipoUnidade": "Metropolitano",
    "tipoGestao": "Gestão por OSS",
    "detalhamentoGestao": "OSS - FGH"
  },
  {
    "macro": "I - Metropolitana",
    "geres": "I - Recife",
    "rd": "Metropolitana",
    "municipio": "Recife",
    "unidade": "Hospital Nossa Senhora das Graças (ALFA)",
    "endereco": "Av. Visc. de Jequitinhonha, 1144 - Boa Viagem, Recife - PE, 51030-020",
    "latitude": "-8.1311699",
    "longitude": "-34.9056137",
    "tipoUnidade": "Hospital OSS",
    "tipoGestao": "Gestão por OSS",
    "detalhamentoGestao": "OSS - FGH"
  },
  {
    "macro": "I - Metropolitana",
    "geres": "I - Recife",
    "rd": "Metropolitana",
    "municipio": "Recife",
    "unidade": "Hospital Otávio de Freitas",
    "endereco": "R. Aprígio Guimarães, s/n - Tejipio, Recife - PE, 50920-460",
    "latitude": "-8.0859515",
    "longitude": "-34.9647359",
    "tipoUnidade": "6 Grandes",
    "tipoGestao": "Gestão Direta"
  },
  {
    "macro": "I - Metropolitana",
    "geres": "I - Recife",
    "rd": "Metropolitana",
    "municipio": "Recife",
    "unidade": "Hospital Psiquiátrico Ulysses Pernambucano",
    "endereco": "Av. Conselheiro Rosa e Silva, 2130 - Tamarineira, Recife - PE, 52050-020",
    "latitude": "-8.0337009",
    "longitude": "-34.9055929",
    "tipoUnidade": "Especializado",
    "tipoGestao": "Gestão Direta"
  },
  {
    "macro": "I - Metropolitana",
    "geres": "I - Recife",
    "rd": "Metropolitana",
    "municipio": "Recife",
    "unidade": "UPA Caxangá",
    "endereco": "R. Ribeiro Pessoa, s/n - Iputinga, Recife - PE, 50980-000",
    "latitude": "-8.0298015",
    "longitude": "-34.960239",
    "tipoUnidade": "UPA",
    "tipoGestao": "Gestão por OSS",
    "detalhamentoGestao": "OSS - FMSA"
  },
  {
    "macro": "I - Metropolitana",
    "geres": "I - Recife",
    "rd": "Metropolitana",
    "municipio": "Recife",
    "unidade": "UPA Ibura",
    "endereco": "R. Vale do Itajaí, s/n - Ibura, Recife - PE, 51320-180",
    "latitude": "-8.1288062",
    "longitude": "-34.952043",
    "tipoUnidade": "UPA",
    "tipoGestao": "Gestão por OSS",
    "detalhamentoGestao": "OSS - Tricentenário"
  },
  {
    "macro": "I - Metropolitana",
    "geres": "I - Recife",
    "rd": "Metropolitana",
    "municipio": "Recife",
    "unidade": "UPA Imbiribeira",
    "endereco": "Av. Mal. Mascarenhas de Morais, 4223 - Imbiribeira, Recife - PE, 51150-004",
    "latitude": "-8.1208945",
    "longitude": "-34.9164402",
    "tipoUnidade": "UPA",
    "tipoGestao": "Gestão por OSS",
    "detalhamentoGestao": "OSS - S3"
  },
  {
    "macro": "I - Metropolitana",
    "geres": "I - Recife",
    "rd": "Metropolitana",
    "municipio": "Recife",
    "unidade": "UPA Nova Descoberta",
    "endereco": "Av. Ver. Otacílio Azevedo, s/n - Nova Descoberta, Recife - PE, 52081-550",
    "latitude": "-8.0019888",
    "longitude": "-34.9242591",
    "tipoUnidade": "UPA",
    "tipoGestao": "Gestão por OSS",
    "detalhamentoGestao": "OSS - FMSA"
  },
  {
    "macro": "I - Metropolitana",
    "geres": "I - Recife",
    "rd": "Metropolitana",
    "municipio": "Recife",
    "unidade": "UPA Torrões",
    "endereco": "Av. Eng. Abdias de Carvalho, nº 30 - Torrões, Recife - PE, 50640-785",
    "latitude": "-8.0631638",
    "longitude": "-34.9366875",
    "tipoUnidade": "UPA",
    "tipoGestao": "Gestão por OSS",
    "detalhamentoGestao": "OSS - FMSA"
  },
  {
    "macro": "IV - Vale do São Francisco e Araripe",
    "geres": "VII - Salgueiro",
    "rd": "Sertão Central",
    "municipio": "Salgueiro",
    "unidade": "UPAE Salgueiro",
    "endereco": "R. João Veras de Siqueira, s/n - Nossa Sra. Aparecida, Salgueiro - PE, 56000-000",
    "latitude": "-8.0752377",
    "longitude": "-39.1346269",
    "tipoUnidade": "UPAE",
    "tipoGestao": "Gestão por OSS",
    "detalhamentoGestao": "OSS - FGH"
  },
  {
    "macro": "I - Metropolitana",
    "geres": "I - Recife",
    "rd": "Metropolitana",
    "municipio": "Recife",
    "unidade": "UPAER",
    "endereco": "R. Interna, 801 - IPSEP, Recife - PE, 51350-351",
    "latitude": "-8.1002759",
    "longitude": "-34.9280533",
    "tipoUnidade": "UPAER",
    "tipoGestao": "Gestão Direta"
  },
  {
    "macro": "I - Metropolitana",
    "geres": "I - Recife",
    "rd": "Metropolitana",
    "municipio": "São Lourenço da Mata",
    "unidade": "UPA São Lourenço",
    "endereco": "Av. Dr. Francisco Correia, 2009 - Pixete, São Lourenço da Mata - PE, 54725-000",
    "latitude": "-7.9912305",
    "longitude": "-35.053798",
    "tipoUnidade": "UPA",
    "tipoGestao": "Gestão por OSS",
    "detalhamentoGestao": "OSS - FGH"
  },
  {
    "macro": "III - Sertão",
    "geres": "XI - Serra Talhada",
    "rd": "Sertão do Pajeú",
    "municipio": "Serra Talhada",
    "unidade": "Hospital Regional Professor Agamenon Magalhães (HOSPAM)",
    "endereco": "R. Manoel Pereira da Silva, 871 - Centro, Serra Talhada - PE, 56903-360",
    "latitude": "-7.9888385",
    "longitude": "-38.3016236",
    "tipoUnidade": "Regional",
    "tipoGestao": "Gestão Direta"
  },
  {
    "macro": "III - Sertão",
    "geres": "XI - Serra Talhada",
    "rd": "Sertão do Pajeú",
    "municipio": "Serra Talhada",
    "unidade": "Hospital do Sertão Governador Eduardo Campos",
    "endereco": "BR-232 - Serra Talhada, PE",
    "latitude": "-7.9926576",
    "longitude": "-38.3384174",
    "tipoUnidade": "Hospital OSS",
    "tipoGestao": "Gestão por OSS",
    "detalhamentoGestao": "OSS - Tricentenário"
  },
  {
    "macro": "III - Sertão",
    "geres": "XI - Serra Talhada",
    "rd": "Sertão do Pajeú",
    "municipio": "Serra Talhada",
    "unidade": "UPAE Serra Talhada",
    "endereco": "R. Quatorze de Julho, s/n - Cagep, Serra Talhada - PE, 56909-000",
    "latitude": "-7.9797558",
    "longitude": "-38.2995709",
    "tipoUnidade": "UPAE",
    "tipoGestao": "Gestão por OSS",
    "detalhamentoGestao": "OSS - Tricentenário"
  },
  {
    "macro": "I - Metropolitana",
    "geres": "I - Recife",
    "rd": "Mata Sul",
    "municipio": "Vitória de Santo Antão",
    "unidade": "Hospital João Murilo de Oliveira",
    "endereco": "Av. Henrique de Holanda, 87 - Matriz, Vitória de Santo Antão - PE, 55602-000",
    "latitude": "-8.1132602",
    "longitude": "-35.289096",
    "tipoUnidade": "Hospital OSS",
    "tipoGestao": "Gestão por OSS",
    "detalhamentoGestao": "OSS - Tricentenário"
  },
  {
    "macro": "I - Metropolitana",
    "geres": "I - Recife",
    "rd": "Metropolitana",
    "municipio": "Recife",
    "unidade": "Hospital Hemope",
    "endereco": "R. Joaquim Nabuco, 171 - Graças, Recife - PE, 52011-000",
    "latitude": "-8.0526951",
    "longitude": "-34.8976068",
    "tipoUnidade": "Especializado",
    "tipoGestao": "Gestão Direta"
  },
  {
    "macro": "I - Metropolitana",
    "geres": "I - Recife",
    "rd": "Metropolitana",
    "municipio": "Igarassu",
    "unidade": "Hospital Alcides Codeceira",
    "endereco": "BR-101, 185 - Santa Maria, Igarassu - PE, 53625-200",
    "latitude": "-7.8671871",
    "longitude": "-34.9098999",
    "tipoUnidade": "Especializado",
    "tipoGestao": "Gestão Direta"
  }
]
